{
  "squads": [
    { "id": "3ajs-1buh12", "name": "Checkout" },
    { "id": "1p2s-1ejac7", "name": "Pagamentos" },
    { "id": "cgdo-s7kout", "name": "Catálogo" },
    { "id": "6zxa-us7y6j", "name": "Logistica" },
    { "id": "39kr-16b6xh", "name": "NOC" },
    { "id": "8plq-abcd12", "name": "Marketplace" },
    { "id": "9xke-ppq123", "name": "Segurança" },
    { "id": "7zrt-98yt56", "name": "Recomendações" },
    { "id": "5xqw-tgk765", "name": "Infraestrutura" },
    { "id": "4asd-54jk32", "name": "Atendimento" }
  ],
  "oncalls": [
    { "id": "1", "squadId": "3ajs-1buh12", "personName": "Renato Silva", "phone": "(11) 90001-0001", "hours": "Seg-Sex 08h00 as 17h00" },
    { "id": "2", "squadId": "3ajs-1buh12", "personName": "Rodrigo Lima", "phone": "(11) 90001-0002", "hours": "Seg-Sex 09h00 as 18h00" },
    { "id": "3", "squadId": "3ajs-1buh12", "personName": "Carla Mendes", "phone": "(11) 90001-0003", "hours": "Plantão Noturno 18h00 as 06h00" },
    { "id": "4", "squadId": "1p2s-1ejac7", "personName": "Gustavo Henrique", "phone": "(16) 99332-6508", "hours": "Sab/Dom 08h00 as 18h00" },
    { "id": "5", "squadId": "1p2s-1ejac7", "personName": "Mariana Souza", "phone": "(11) 90002-0001", "hours": "Seg-Sex 08h00 as 17h00" },
    { "id": "6", "squadId": "1p2s-1ejac7", "personName": "Eduardo Alves", "phone": "(11) 90002-0002", "hours": "Seg-Sex 10h00 as 19h00" },
    { "id": "7", "squadId": "cgdo-s7kout", "personName": "Ricardo Martins", "phone": "(11) 90003-0001", "hours": "Seg-Sex 08h00 as 17h00" },
    { "id": "8", "squadId": "cgdo-s7kout", "personName": "Fernanda Dias", "phone": "(11) 90003-0002", "hours": "Seg-Sex 09h00 as 18h00" },
    { "id": "9", "squadId": "cgdo-s7kout", "personName": "Beatriz Silva", "phone": "(11) 90003-0004", "hours": "Plantão Noturno 18h00 as 06h00" },
    { "id": "10", "squadId": "6zxa-us7y6j", "personName": "Tatiane Lima", "phone": "(11) 90004-0001", "hours": "Seg-Sex 08h00 as 17h00" },
    { "id": "11", "squadId": "6zxa-us7y6j", "personName": "Bruno Carvalho", "phone": "(11) 90004-0002", "hours": "Seg-Sex 09h00 as 18h00" },
    { "id": "12", "squadId": "6zxa-us7y6j", "personName": "Paulo Henrique", "phone": "(11) 90004-0005", "hours": "Sab/Dom 08h00 as 18h00" },
    { "id": "13", "squadId": "39kr-16b6xh", "personName": "Rodrigo Bizinoto", "phone": "(11) 1111-1111", "hours": "Sab 08h00 as 18h00" },
    { "id": "14", "squadId": "39kr-16b6xh", "personName": "Luciana Prado", "phone": "(11) 90005-0001", "hours": "Seg-Sex 08h00 as 17h00" },
    { "id": "15", "squadId": "39kr-16b6xh", "personName": "Diego Ramos", "phone": "(11) 90005-0002", "hours": "Seg-Sex 09h00 as 18h00" },
    { "id": "16", "squadId": "8plq-abcd12", "personName": "Camila Ferreira", "phone": "(11) 90006-0001", "hours": "Seg-Sex 10h00 as 19h00" },
    { "id": "17", "squadId": "8plq-abcd12", "personName": "João Vieira", "phone": "(11) 90006-0002", "hours": "Plantão Noturno 18h00 as 06h00" },
    { "id": "18", "squadId": "8plq-abcd12", "personName": "Letícia Ramos", "phone": "(11) 90006-0003", "hours": "Sab/Dom 08h00 as 18h00" },
    { "id": "19", "squadId": "9xke-ppq123", "personName": "André Oliveira", "phone": "(11) 90007-0001", "hours": "Seg-Sex 08h00 as 17h00" },
    { "id": "20", "squadId": "9xke-ppq123", "personName": "Priscila Moura", "phone": "(11) 90007-0002", "hours": "Seg-Sex 09h00 as 18h00" },
    { "id": "21", "squadId": "9xke-ppq123", "personName": "Vitor Santos", "phone": "(11) 90007-0003", "hours": "Seg-Sex 10h00 as 19h00" },
    { "id": "22", "squadId": "7zrt-98yt56", "personName": "Caroline Freitas", "phone": "(11) 90008-0001", "hours": "Seg-Sex 08h00 as 17h00" },
    { "id": "23", "squadId": "7zrt-98yt56", "personName": "Igor Moraes", "phone": "(11) 90008-0002", "hours": "Seg-Sex 09h00 as 18h00" },
    { "id": "24", "squadId": "7zrt-98yt56", "personName": "Sabrina Torres", "phone": "(11) 90008-0003", "hours": "Plantão Noturno 18h00 as 06h00" },
    { "id": "25", "squadId": "5xqw-tgk765", "personName": "Daniel Lima", "phone": "(11) 90009-0001", "hours": "Sab/Dom 08h00 as 18h00" },
    { "id": "26", "squadId": "5xqw-tgk765", "personName": "Paula Fernandes", "phone": "(11) 90009-0002", "hours": "Seg-Sex 08h00 as 17h00" },
    { "id": "27", "squadId": "5xqw-tgk765", "personName": "Gabriel Moreira", "phone": "(11) 90009-0003", "hours": "Seg-Sex 09h00 as 18h00" },
    { "id": "28", "squadId": "5xqw-tgk765", "personName": "Vanessa Costa", "phone": "(11) 90009-0004", "hours": "Seg-Sex 10h00 as 19h00" },
    { "id": "29", "squadId": "4asd-54jk32", "personName": "João Almeida", "phone": "(11) 90010-0001", "hours": "Plantão Noturno 18h00 as 06h00" },
    { "id": "30", "squadId": "4asd-54jk32", "personName": "Pedro Santos", "phone": "(11) 90010-0002", "hours": "Sab/Dom 08h00 as 18h00" },
    { "id": "31", "squadId": "4asd-54jk32", "personName": "Larissa Gomes", "phone": "(11) 90010-0003", "hours": "Seg-Sex 08h00 as 17h00" },
    { "id": "32", "squadId": "4asd-54jk32", "personName": "Marcelo Vieira", "phone": "(11) 90010-0004", "hours": "Seg-Sex 09h00 as 18h00" },
    { "id": "33", "squadId": "4asd-54jk32", "personName": "Tatiana Souza", "phone": "(11) 90010-0005", "hours": "Seg-Sex 10h00 as 19h00" },
    { "id": "34", "squadId": "4asd-54jk32", "personName": "Fábio Teixeira", "phone": "(11) 90010-0006", "hours": "Plantão Noturno 18h00 as 06h00" },
    { "id": "35", "squadId": "4asd-54jk32", "personName": "Carla Rodrigues", "phone": "(11) 90010-0007", "hours": "Sab/Dom 08h00 as 18h00" },
    { "id": "36", "squadId": "4asd-54jk32", "personName": "Rafael Duarte", "phone": "(11) 90010-0008", "hours": "Seg-Sex 08h00 as 17h00" },
    { "id": "37", "squadId": "4asd-54jk32", "personName": "Simone Barros", "phone": "(11) 90010-0009", "hours": "Seg-Sex 09h00 as 18h00" },
    { "id": "38", "squadId": "4asd-54jk32", "personName": "Leonardo Pinto", "phone": "(11) 90010-0010", "hours": "Seg-Sex 10h00 as 19h00" },
    { "id": "39", "squadId": "4asd-54jk32", "personName": "Bruna Cardoso", "phone": "(11) 90010-0011", "hours": "Plantão Noturno 18h00 as 06h00" },
    { "id": "40", "squadId": "4asd-54jk32", "personName": "Maurício Rezende", "phone": "(11) 90010-0012", "hours": "Sab/Dom 08h00 as 18h00" }
  ]
}
